[
  {
      "Toll Name": "M1 Gormanston",
      "Latitude": 53.697586,
      "Longitude": -6.376739,
      "Toll Price": 2.30
  },
  {
      "Toll Name": "M3 Clonee-Kells",
      "Latitude": 53.943244,
      "Longitude": -7.225545,
      "Toll Price": 1.70
  },
  {
      "Toll Name": "M4 Kilcock Enfield Kinnegad",
      "Latitude": 53.410475,
      "Longitude": -6.849833,
      "Toll Price": 3.50
  },
  {
      "Toll Name": "N6 Galway Ballinasloe",
      "Latitude": 53.295217,
      "Longitude": -8.931516,
      "Toll Price": 2.30
  },
  {
      "Toll Name": "M7-M8 Portlaoise Castletown Portlaoise Cullahill",
      "Latitude": 52.415935,
      "Longitude": -7.913516,
      "Toll Price": 2.3
  },
  {
      "Toll Name": "N8 Rathcormac Fermoy Bypass",
      "Latitude": 52.026805,
      "Longitude": -8.328396,
      "Toll Price": 2.30
  },
  {
      "Toll Name": "Limerick Tunnel",
      "Latitude": 52.654857,
      "Longitude": -8.685767,
      "Toll Price": 2.30
  },
  {
      "Toll Name": "N25 Waterford City Bypass",
      "Latitude": 52.199979,
      "Longitude": -7.415432,
      "Toll Price": 2.30
  },
  {
      "Toll Name": "Dublin Port Tunnel",
      "Latitude": 53.376766,
      "Longitude": -6.244125,
      "Toll Price": 13.0
  },
  {
      "Toll Name": "M50 Barrier",
      "Latitude": 53.352999,
      "Longitude": -6.224112,
      "Toll Price": 2.50
  },
  {
      "Toll Name": "M3 Southern Toll Plaza",
      "Latitude": 53.453652,
      "Longitude": -6.482801,
      "Toll Price": 1.70
  },
  {
      "Toll Name": "East Link Toll Bridge",
      "Latitude": 53.344225,
      "Longitude": -6.224435,
      "Toll Price": 2.30
  }
]
